[
	{
		"id": "alsalam-moske-karlshamn",
		"name": "Alsalam moské, Karlshamn",
		"lat": 56.184646,
		"lng": 14.746081,
		"city": "Mörrum",
		"citySlug": "morrum",
		"kommun": "Karlshamn",
		"lan": "Blekinge",
		"opened": 2016,
		"address": "Fabriksvägen, Buskelund, Mörrum",
		"postalCode": "375 30"
	},
	{
		"id": "karlshamn-mosken",
		"name": "Karlshamn-moskén",
		"lat": 56.187462,
		"lng": 14.857112,
		"city": "Karlshamn",
		"citySlug": "karlshamn",
		"kommun": "Karlshamn",
		"lan": "Blekinge",
		"opened": 2016,
		"address": "21, Fridhemsgatan, Högadal, Karlshamn",
		"postalCode": "374 41"
	},
	{
		"id": "ronneby-moske",
		"name": "Ronneby moske",
		"lat": 56.215137,
		"lng": 15.266128,
		"city": "Ronneby",
		"citySlug": "ronneby",
		"kommun": "Ronneby",
		"lan": "Blekinge",
		"opened": 2009,
		"address": "Västra Industrigatan, Sörby, Ronneby",
		"postalCode": "372 31"
	},
	{
		"id": "alfarok-mosken",
		"name": "Alfarok-moskén",
		"lat": 60.145309,
		"lng": 16.157563,
		"city": "Avesta",
		"citySlug": "avesta",
		"kommun": "Avesta",
		"lan": "Dalarna",
		"opened": 2014,
		"address": "Corneliusgatan, Prästjorden, Storbo, Avesta",
		"postalCode": "774 31"
	},
	{
		"id": "arabisk-utbildning",
		"name": "Arabisk utbildning",
		"lat": 60.2823,
		"lng": 15.985241,
		"city": "Hedemora",
		"citySlug": "hedemora",
		"kommun": "Hedemora",
		"lan": "Dalarna",
		"opened": 2015,
		"address": "Melinsgatan, Gussarvet, Hedemora",
		"postalCode": "776 31"
	},
	{
		"id": "borlange-religion-centre",
		"name": "Borlänge Religion Centre",
		"lat": 60.496141,
		"lng": 15.412768,
		"city": "Borlänge",
		"citySlug": "borlange",
		"kommun": "Borlänge",
		"lan": "Dalarna",
		"opened": 1987,
		"address": "Tennishallen, 1B, Betesgatan, Bullermyren, Borlänge",
		"postalCode": "784 41"
	},
	{
		"id": "falun-islamic-center",
		"name": "Falun Islamic Center",
		"lat": 60.596128,
		"lng": 15.651105,
		"city": "Falun",
		"citySlug": "falun",
		"kommun": "Falun",
		"lan": "Dalarna",
		"opened": 2012,
		"address": "Ugglevägen, Kvarnberget, Falun",
		"postalCode": "791 50"
	},
	{
		"id": "namnlos-i-osm-borlange",
		"name": "Moské i Borlänge",
		"lat": 60.483775,
		"lng": 15.403887,
		"city": "Borlänge",
		"citySlug": "borlange",
		"kommun": "Borlänge",
		"lan": "Dalarna"
	},
	{
		"id": "gotland-moske-visby",
		"name": "Gotland Moské Visby",
		"lat": 57.641587,
		"lng": 18.313349,
		"city": "Visby",
		"citySlug": "visby",
		"kommun": "Gotland",
		"lan": "Gotland",
		"opened": 2009,
		"address": "Mästergatan, Bingeby, Visby",
		"postalCode": "621 42"
	},
	{
		"id": "al-rashideen-mosque",
		"name": "Al Rashideen Mosque",
		"lat": 60.668849,
		"lng": 17.151443,
		"city": "Gävle",
		"citySlug": "gavle",
		"kommun": "Gävle",
		"lan": "Gävleborg",
		"opened": 1983,
		"address": "25, Södra Rådmansgatan, Södertull, Gävle",
		"postalCode": "802 51"
	},
	{
		"id": "bollnas-islamic-center",
		"name": "Bollnäs Islamic Center",
		"lat": 61.353317,
		"lng": 16.390882,
		"city": "Bollnäs",
		"citySlug": "bollnas",
		"kommun": "Bollnäs",
		"lan": "Gävleborg",
		"opened": 2015,
		"address": "Fabriksgatan, Bollnäs",
		"postalCode": "821 33"
	},
	{
		"id": "hudiksvalls-mosque",
		"name": "Hudiksvalls Mosque",
		"lat": 61.727081,
		"lng": 17.120598,
		"city": "Hudiksvall",
		"citySlug": "hudiksvall",
		"kommun": "Hudiksvall",
		"lan": "Gävleborg",
		"opened": 1992,
		"address": "45, Hamngatan, Kålhagen, Hudiksvall",
		"postalCode": "824 52"
	},
	{
		"id": "sandviken-moske",
		"name": "Sandviken Moské",
		"lat": 60.622636,
		"lng": 16.781306,
		"city": "Sandviken",
		"citySlug": "sandviken",
		"kommun": "Sandviken",
		"lan": "Gävleborg",
		"opened": 2019,
		"address": "Brun Solarium, 28, Odengatan, Kyrkåsen, Sandviken",
		"postalCode": "811 34"
	},
	{
		"id": "soderhamn-moske",
		"name": "Söderhamn Moské",
		"lat": 61.308605,
		"lng": 17.049885,
		"city": "Söderhamn",
		"citySlug": "soderhamn",
		"kommun": "Söderhamn",
		"lan": "Gävleborg",
		"opened": 2010,
		"organisation": "Känd finansiering Drivs av en lokal ideell förening (registrerad som religiös organisation).",
		"address": "Tallvägen, Norrberget, Söderhamn",
		"postalCode": "826 80"
	},
	{
		"id": "andersbergsmosken",
		"name": "Andersbergsmoskén",
		"lat": 56.658406,
		"lng": 12.898698,
		"city": "Halmstad",
		"citySlug": "halmstad",
		"kommun": "Halmstad",
		"lan": "Halland",
		"opened": 2021,
		"address": "153, Andersbergsringen, Andersberg, Halmstad",
		"postalCode": "302 22"
	},
	{
		"id": "bosnjakiska-islamiska-forsamlingen-i-varberg",
		"name": "Bosnjakiska Islamiska Församlingen I Varberg",
		"lat": 57.107572,
		"lng": 12.2625,
		"city": "Varberg",
		"citySlug": "varberg",
		"kommun": "Varberg",
		"lan": "Halland",
		"opened": 2004,
		"address": "Västkustvägen, Karlberg, Brunnsberg, Varberg",
		"postalCode": "432 80"
	},
	{
		"id": "bosnjakiska-islamska-forsamlingen-halmstad",
		"name": "Bosnjakiska Islamska Församlingen Halmstad",
		"lat": 56.659362,
		"lng": 12.894064,
		"city": "Halmstad",
		"citySlug": "halmstad",
		"kommun": "Halmstad",
		"lan": "Halland",
		"opened": 1998,
		"address": "Gesällgatan, Linehed, Halmstad",
		"postalCode": "302 54"
	},
	{
		"id": "falkenberg",
		"name": "Falkenberg",
		"lat": 56.904263,
		"lng": 12.481004,
		"city": "Falkenberg",
		"citySlug": "falkenberg",
		"kommun": "Falkenberg",
		"lan": "Halland",
		"address": "Kvekatorpsvägen 2b Falkenberg"
	},
	{
		"id": "halmstad",
		"name": "Halmstad",
		"lat": 56.673164,
		"lng": 12.865589,
		"city": "Halmstad",
		"citySlug": "halmstad",
		"kommun": "Halmstad",
		"lan": "Halland",
		"address": "Fredsgatan 15 Halmstad"
	},
	{
		"id": "halmstad-moske",
		"name": "Halmstad moské",
		"lat": 56.673783,
		"lng": 12.860964,
		"city": "Halmstad",
		"citySlug": "halmstad",
		"kommun": "Halmstad",
		"lan": "Halland",
		"address": "Fredsgatan, Östra Förstaden, Halmstad",
		"postalCode": "302 46"
	},
	{
		"id": "hyltebruk",
		"name": "Hyltebruk moské",
		"lat": 57.007486,
		"lng": 13.240919,
		"city": "Hyltebruk",
		"citySlug": "hyltebruk",
		"kommun": "Hylte",
		"lan": "Halland",
		"opened": 2011,
		"address": "Landerydsvägen 9, Hyltebruk",
		"postalCode": "314 32"
	},
	{
		"id": "islamiska-kulturella-foreningen-i-varberg",
		"name": "Islamiska Kulturella föreningen i Varberg",
		"lat": 57.117286,
		"lng": 12.29249,
		"city": "Varberg",
		"citySlug": "varberg",
		"kommun": "Varberg",
		"lan": "Halland",
		"opened": 2017,
		"address": "Härdgatan, Nedregårdens industriområde, Nedregården, Varberg",
		"postalCode": "432 32"
	},
	{
		"id": "moske-bilal",
		"name": "Moské Bilal",
		"lat": 56.896939,
		"lng": 12.473718,
		"city": "Falkenberg",
		"citySlug": "falkenberg",
		"kommun": "Falkenberg",
		"lan": "Halland",
		"opened": 1990,
		"organisation": "Islamska Kulturella Föreningen men troligen också genom kulturbidrag från kommunen",
		"address": "Kvekatorpsvägen, Västra gärdet, Skrea Strand, Falkenberg",
		"postalCode": "311 75"
	},
	{
		"id": "varberg",
		"name": "Varberg",
		"lat": 57.12355,
		"lng": 12.286039,
		"city": "Varberg",
		"citySlug": "varberg",
		"kommun": "Varberg",
		"lan": "Halland",
		"address": "Vagnvägen 16B Varberg"
	},
	{
		"id": "ostersund-islamisk-moske",
		"name": "Östersund Islamisk Moské",
		"lat": 63.185636,
		"lng": 14.643952,
		"city": "Östersund",
		"citySlug": "ostersund",
		"kommun": "Östersund",
		"lan": "Jämtland",
		"opened": 2001,
		"address": "Infanterigatan, Hornsberg, Östersund",
		"postalCode": "931 28"
	},
	{
		"id": "aneby-islamiska-forening",
		"name": "Aneby Islamiska Förening",
		"lat": 57.839518,
		"lng": 14.809678,
		"city": "Aneby",
		"citySlug": "aneby",
		"kommun": "Aneby",
		"lan": "Jönköping",
		"opened": 2016,
		"address": "Parkgatan, Hillerstorp, Aneby",
		"postalCode": "578 33"
	},
	{
		"id": "bis-forsamlingen-varnamo-dzemat-varnamo",
		"name": "BIS-Församlingen Värnamo (Džemat Värnamo)",
		"lat": 57.184124,
		"lng": 14.037509,
		"city": "Värnamo",
		"citySlug": "varnamo",
		"kommun": "Värnamo",
		"lan": "Jönköping",
		"opened": 1997,
		"address": "Västermogatan, Norra Salutorget, Snipen, Värnamo",
		"postalCode": "331 27"
	},
	{
		"id": "bosniakiska-islamiska-forsamlingen-jonkoping",
		"name": "Bosniakiska Islamiska Församlingen Jönköping",
		"lat": 57.651225,
		"lng": 14.685322,
		"city": "Nässjö",
		"citySlug": "nassjo",
		"kommun": "Nässjö",
		"lan": "Jönköping",
		"opened": 1995,
		"address": "40, Mellangatan, Målen, Norrboda, Nässjö",
		"postalCode": "571 42"
	},
	{
		"id": "bosniakiska-islamiska-forsamlingen-vetlanda",
		"name": "Bosniakiska Islamiska Församlingen Vetlanda",
		"lat": 57.428233,
		"lng": 15.08326,
		"city": "Vetlanda",
		"citySlug": "vetlanda",
		"kommun": "Vetlanda",
		"lan": "Jönköping",
		"opened": 1995,
		"address": "Kyrkogatan, Vetlanda",
		"postalCode": "574 31"
	},
	{
		"id": "bosniska-islamiska-forsamlingen-gislaved",
		"name": "Bosniska Islamiska Församlingen Gislaved",
		"lat": 57.28983,
		"lng": 13.525873,
		"city": "Gislaved",
		"citySlug": "gislaved",
		"kommun": "Gislaved",
		"lan": "Jönköping",
		"opened": 1999
	},
	{
		"id": "gislaved-mosque",
		"name": "Gislaved Mosque",
		"lat": 57.303008,
		"lng": 13.534988,
		"city": "Gislaved",
		"citySlug": "gislaved",
		"kommun": "Gislaved",
		"lan": "Jönköping",
		"address": "Västergatan, Gislaved",
		"postalCode": "332 23"
	},
	{
		"id": "jonkopings-islamic-center",
		"name": "Jönköpings Islamic Center",
		"lat": 57.786401,
		"lng": 14.261735,
		"city": "Huskvarna",
		"citySlug": "huskvarna",
		"kommun": "Jönköping",
		"lan": "Jönköping",
		"opened": 2007,
		"address": "Birkagatan, Kungsängen, Öxnehaga, Huskvarna",
		"postalCode": "561 51"
	},
	{
		"id": "jonkopings-islamiska-forsamling",
		"name": "Jönköpings Islamiska Församling",
		"lat": 57.736387,
		"lng": 14.147761,
		"city": "Jönköping",
		"citySlug": "jonkoping",
		"kommun": "Jönköping",
		"lan": "Jönköping",
		"address": "Kärrhöksgatan, Lockebo, Råslätt, Jönköping",
		"postalCode": "556 11"
	},
	{
		"id": "nassjo-moske",
		"name": "Nässjö moské",
		"lat": 57.660053,
		"lng": 14.696933,
		"city": "Nässjö",
		"citySlug": "nassjo",
		"kommun": "Nässjö",
		"lan": "Jönköping",
		"opened": 2018,
		"address": "Norråsagatan, Runneryd, Norrboda, Nässjö",
		"postalCode": "571 32"
	},
	{
		"id": "skillingaryd-moske",
		"name": "Skillingaryd moské",
		"lat": 57.422269,
		"lng": 14.082107,
		"city": "Skillingaryd",
		"citySlug": "skillingaryd",
		"kommun": "Vaggeryd",
		"lan": "Jönköping",
		"address": "Mellangatan, Eksområdet, Marielundsområdet, Skillingaryd",
		"postalCode": "568 30"
	},
	{
		"id": "vetlanda-moske",
		"name": "Vetlanda moské",
		"lat": 57.421588,
		"lng": 15.079847,
		"city": "Vetlanda",
		"citySlug": "vetlanda",
		"kommun": "Vetlanda",
		"lan": "Jönköping",
		"opened": 2026,
		"address": "5, Vasagatan, Brogårds industriområde, Vetlanda",
		"postalCode": "574 38"
	},
	{
		"id": "varnamo-moske-internationella-islamiska-forening-i-varnamo",
		"name": "Värnamo moske/Internationella Islamiska Förening i Värnamo",
		"lat": 57.197752,
		"lng": 14.035522,
		"city": "Värnamo",
		"citySlug": "varnamo",
		"kommun": "Värnamo",
		"lan": "Jönköping",
		"opened": 2008,
		"address": "Jönköpingsvägen, Norra Salutorget, Värnet, Värnamo",
		"postalCode": "331 34"
	},
	{
		"id": "bosniska-islamiska-forsamlingen-kalmar",
		"name": "Bosniska Islamiska Församlingen Kalmar",
		"lat": 56.7031,
		"lng": 16.354835,
		"city": "Kalmar",
		"citySlug": "kalmar",
		"kommun": "Kalmar",
		"lan": "Kalmar",
		"opened": 1995,
		"address": "35, Två Bröders väg, Norrliden, Kalmar",
		"postalCode": "393 58"
	},
	{
		"id": "islamiska-kulturcentret-vastervik-moske",
		"name": "Islamiska kulturcentret (Västervik moské)",
		"lat": 57.751483,
		"lng": 16.633987,
		"city": "Västervik",
		"citySlug": "vastervik",
		"kommun": "Västervik",
		"lan": "Kalmar",
		"opened": 1988,
		"address": "Grevgatan, Ludvigsborg, Västervik",
		"postalCode": "593 32"
	},
	{
		"id": "islamiska-kulturforeningen-salam-i-kalmar",
		"name": "Islamiska Kulturföreningen Salam I Kalmar",
		"lat": 56.663822,
		"lng": 16.364397,
		"city": "Kalmar",
		"citySlug": "kalmar",
		"kommun": "Kalmar",
		"lan": "Kalmar",
		"opened": 2003,
		"address": "27, Storgatan, Kvarnholmen, Kalmar",
		"postalCode": "392 32"
	},
	{
		"id": "misk-mosken",
		"name": "Misk-moskén",
		"lat": 57.161105,
		"lng": 16.03074,
		"city": "Högsby",
		"citySlug": "hogsby",
		"kommun": "Högsby",
		"lan": "Kalmar",
		"opened": 2017,
		"address": "Storgatan, Högsby gård, Högsby",
		"postalCode": "579 30"
	},
	{
		"id": "muslimska-samfundet-i-kalmar",
		"name": "Muslimska Samfundet i Kalmar",
		"lat": 56.692609,
		"lng": 16.322228,
		"city": "Kalmar",
		"citySlug": "kalmar",
		"kommun": "Kalmar",
		"lan": "Kalmar",
		"opened": 2021,
		"address": "Wismarsvägen, Berga industriområde, Kalmar",
		"postalCode": "393 54"
	},
	{
		"id": "monsteras-moske",
		"name": "Mönsterås Moske",
		"lat": 57.043897,
		"lng": 16.446014,
		"city": "Mönsterås",
		"citySlug": "monsteras",
		"kommun": "Mönsterås",
		"lan": "Kalmar",
		"opened": 2010,
		"address": "18, Kyrkogatan, Västra Kråkerum, Mönsterås",
		"postalCode": "383 33"
	},
	{
		"id": "nybro-moske",
		"name": "Nybro moske",
		"lat": 56.746249,
		"lng": 15.908511,
		"city": "Nybro",
		"citySlug": "nybro",
		"kommun": "Nybro",
		"lan": "Kalmar",
		"opened": 2015,
		"postalCode": "382 41"
	},
	{
		"id": "oskarshamn-moske",
		"name": "Oskarshamn Moské",
		"lat": 57.263098,
		"lng": 16.443788,
		"city": "Oskarshamn",
		"citySlug": "oskarshamn",
		"kommun": "Oskarshamn",
		"lan": "Kalmar",
		"opened": 2023,
		"address": "Södra Långgatan, Norrtorn, Oskarshamn",
		"postalCode": "572 55"
	},
	{
		"id": "vimmerby-mosken",
		"name": "مسجد فيمربي Vimmerby moskén",
		"lat": 57.666657,
		"lng": 15.850846,
		"city": "Vimmerby",
		"citySlug": "vimmerby",
		"kommun": "Vimmerby",
		"lan": "Kalmar",
		"address": "19, Sevedegatan, Åbro, Vimmerby",
		"postalCode": "598 37"
	},
	{
		"id": "bosnian-mosque",
		"name": "Bosnian Mosque",
		"lat": 56.888046,
		"lng": 14.78236,
		"city": "Växjö",
		"citySlug": "vaxjo",
		"kommun": "Växjö",
		"lan": "Kronoberg",
		"address": "Arabygatan, Västra Mark, Växjö",
		"postalCode": "351 80"
	},
	{
		"id": "lessebo-moske-masjid",
		"name": "Lessebo moské (Masjid)",
		"lat": 56.754407,
		"lng": 15.276159,
		"city": "Lessebo",
		"citySlug": "lessebo",
		"kommun": "Lessebo",
		"lan": "Kronoberg",
		"address": "3a, Rasthagsvägen, Lessebo",
		"postalCode": "365 32"
	},
	{
		"id": "ljungby-moske",
		"name": "Ljungby moské",
		"lat": 56.831334,
		"lng": 13.931027,
		"city": "Ljungby",
		"citySlug": "ljungby",
		"kommun": "Ljungby",
		"lan": "Kronoberg",
		"opened": 2014,
		"address": "Skånegatan, Gänget, Ljungby",
		"postalCode": "341 60"
	},
	{
		"id": "den-befintliga-kallarmosken-kallas-ljungby-moske",
		"name": "Moské vid Nyponvägen",
		"lat": 56.813032,
		"lng": 13.909115,
		"city": "Ljungby",
		"citySlug": "ljungby",
		"kommun": "Ljungby",
		"lan": "Kronoberg",
		"address": "Nyponvägen, Rosendal, Ljungby",
		"postalCode": "341 32"
	},
	{
		"id": "stromsnasbruks-moske",
		"name": "Strömsnäsbruks moské",
		"lat": 56.542671,
		"lng": 13.727948,
		"city": "Strömsnäsbruk",
		"citySlug": "stromsnasbruk",
		"kommun": "Markaryd",
		"lan": "Kronoberg",
		"opened": 2018,
		"address": "Järnvägsgatan, Strömsnäsbruk",
		"postalCode": "287 72"
	},
	{
		"id": "svenska-muslimer-i-ljungby",
		"name": "Svenska Muslimer i Ljungby",
		"lat": 56.830536,
		"lng": 13.931814,
		"city": "Ljungby",
		"citySlug": "ljungby",
		"kommun": "Ljungby",
		"lan": "Kronoberg"
	},
	{
		"id": "vaxjo-islamiska-center-stiftelsen-vaxjo-muslimer",
		"name": "Växjö Islamiska Center Stiftelsen Växjö Muslimer",
		"lat": 56.895534,
		"lng": 14.797813,
		"city": "Växjö",
		"citySlug": "vaxjo",
		"kommun": "Växjö",
		"lan": "Kronoberg",
		"opened": 2001,
		"address": "Försommarvägen, Araby, Växjö",
		"postalCode": "352 48"
	},
	{
		"id": "boden-moske",
		"name": "Boden Moske",
		"lat": 65.822254,
		"lng": 21.680961,
		"city": "Boden",
		"citySlug": "boden",
		"kommun": "Boden",
		"lan": "Norrbotten",
		"opened": 2006,
		"address": "Drottninggatan, Björknäs, Boden",
		"postalCode": "961 35"
	},
	{
		"id": "gallivare-islamiska-foreningen",
		"name": "Gällivare Islamiska föreningen",
		"lat": 67.135557,
		"lng": 20.661654,
		"city": "Gällivare",
		"citySlug": "gallivare",
		"kommun": "Gällivare",
		"lan": "Norrbotten",
		"opened": 2006,
		"address": "Hantverkaregatan, Karhakka, Heden, Gällivare",
		"postalCode": "982 31"
	},
	{
		"id": "lulea",
		"name": "Luleå",
		"lat": 65.580751,
		"lng": 22.196717,
		"city": "Luleå",
		"citySlug": "lulea",
		"kommun": "Luleå",
		"lan": "Norrbotten",
		"address": "Krongårdsringen 2 Luleå"
	},
	{
		"id": "lulea-moske-forsamling",
		"name": "Luleå Moské Församling",
		"lat": 65.598826,
		"lng": 22.198478,
		"city": "Luleå",
		"citySlug": "lulea",
		"kommun": "Luleå",
		"lan": "Norrbotten",
		"opened": 2000,
		"address": "Kronanvägen, Östra Kronan, Kronandalen, Kronan, Luleå",
		"postalCode": "974 42"
	},
	{
		"id": "lulea-moskeforsamling",
		"name": "Luleå Moskéförsamling",
		"lat": 65.592032,
		"lng": 22.189899,
		"city": "Luleå",
		"citySlug": "lulea",
		"kommun": "Luleå",
		"lan": "Norrbotten",
		"address": "Krondalsvägen 2"
	},
	{
		"id": "norrbottens-islamiska-center-moske",
		"name": "Norrbottens Islamiska Center Moské",
		"lat": 65.590572,
		"lng": 22.251202,
		"city": "Luleå",
		"citySlug": "lulea",
		"kommun": "Luleå",
		"lan": "Norrbotten",
		"opened": 2006,
		"address": "Avaviksvägen, Hertsön, Luleå",
		"postalCode": "974 52"
	},
	{
		"id": "abubakar-mosque-afghan-mosque",
		"name": "AbuBakar Mosque (Afghan Mosque)",
		"lat": 55.581184,
		"lng": 13.019592,
		"city": "Malmö",
		"citySlug": "malmo",
		"kommun": "Malmö",
		"lan": "Skåne",
		"opened": 2017,
		"address": "Lantmannagatan, Södra Sofielund, Innerstaden, Malmö",
		"postalCode": "214 48"
	},
	{
		"id": "aif-ikra",
		"name": "AIF IKRA",
		"lat": 55.871691,
		"lng": 12.837898,
		"city": "Landskrona",
		"citySlug": "landskrona",
		"kommun": "Landskrona",
		"lan": "Skåne",
		"opened": 2012,
		"address": "Albanska Islamiska Föreningen Ikra, 14, Ödmanssonsgatan, Citadellstaden, Karlslund, Landskrona",
		"postalCode": "261 34"
	},
	{
		"id": "al-farooq-moske",
		"name": "Al Farooq moské",
		"lat": 56.073346,
		"lng": 12.950573,
		"city": "Bjuv",
		"citySlug": "bjuv",
		"kommun": "Bjuv",
		"lan": "Skåne",
		"opened": 2018,
		"address": "Rosentorpsvägen, Lunnahus, Bjuv",
		"postalCode": "267 39"
	},
	{
		"id": "al-salam-center-i-helsingborg",
		"name": "Al Salam Center I Helsingborg",
		"lat": 56.038059,
		"lng": 12.704076,
		"city": "Helsingborg",
		"citySlug": "helsingborg",
		"kommun": "Helsingborg",
		"lan": "Skåne",
		"opened": 2018,
		"address": "65, Södergatan, Söder, Helsingborg",
		"postalCode": "252 25"
	},
	{
		"id": "albayan-center",
		"name": "Albayan Center",
		"lat": 55.585813,
		"lng": 13.03139,
		"city": "Malmö",
		"citySlug": "malmo",
		"kommun": "Malmö",
		"lan": "Skåne",
		"opened": 2013,
		"address": "4c, Hårds väg, Törnrosen, Öster, Malmö",
		"postalCode": "213 61"
	},
	{
		"id": "alrahma-mosque",
		"name": "Alrahma Mosque",
		"lat": 56.061189,
		"lng": 14.160467,
		"city": "Kristianstad",
		"citySlug": "kristianstad",
		"kommun": "Kristianstad",
		"lan": "Skåne",
		"address": "Tvedegårdsvägen, Gamlegården, Fårarp, Kristianstad",
		"postalCode": "291 38"
	},
	{
		"id": "arlovs-muslimska-kulturforening",
		"name": "Arlövs Muslimska Kulturförening",
		"lat": 55.636599,
		"lng": 13.076327,
		"city": "Arlöv",
		"citySlug": "arlov",
		"kommun": "Burlöv",
		"lan": "Skåne",
		"opened": 2013,
		"address": "4, Hantverkaregatan, Arlöv, Malmö",
		"postalCode": "232 34"
	},
	{
		"id": "bosniakiska-islamiska-samfundet-i-sverige-forsamlingen-i-landskrona",
		"name": "Bosniakiska islamiska samfundet i Sverige - Församlingen i Landskrona",
		"lat": 55.874885,
		"lng": 12.83275,
		"city": "Landskrona",
		"citySlug": "landskrona",
		"kommun": "Landskrona",
		"lan": "Skåne",
		"opened": 1994,
		"address": "5, Engelbrektsgatan, Citadellstaden, Karlslund, Landskrona",
		"postalCode": "261 33"
	},
	{
		"id": "bosniska-islamiska-foreningen-malmo",
		"name": "Bosniska Islamiska Föreningen Malmö",
		"lat": 55.580834,
		"lng": 13.015843,
		"city": "Malmö",
		"citySlug": "malmo",
		"kommun": "Malmö",
		"lan": "Skåne",
		"opened": 1994,
		"address": "Ystadvägen, Södra Sofielund, Innerstaden, Malmö",
		"postalCode": "214 45"
	},
	{
		"id": "bosniska-islamiska-forsamlingen-helsingborg",
		"name": "Bosniska Islamiska Församlingen Helsingborg",
		"lat": 56.041314,
		"lng": 12.707695,
		"city": "Helsingborg",
		"citySlug": "helsingborg",
		"kommun": "Helsingborg",
		"lan": "Skåne",
		"opened": 2000,
		"address": "10, Bjäregatan, Eneborg, Helsingborg",
		"postalCode": "252 48"
	},
	{
		"id": "bosniska-islamiska-forsamlingen-trelleborg",
		"name": "Bosniska Islamiska Församlingen Trelleborg",
		"lat": 55.380597,
		"lng": 13.157948,
		"city": "Trelleborg",
		"citySlug": "trelleborg",
		"kommun": "Trelleborg",
		"lan": "Skåne",
		"opened": 1995,
		"address": "Hedvägen, Granlunda, Trelleborg",
		"postalCode": "231 43"
	},
	{
		"id": "drita-islamiska-foreningen-shoqata-islame",
		"name": "Drita Islamiska föreningen (Shoqata Islame)",
		"lat": 55.58006,
		"lng": 13.052104,
		"city": "Malmö",
		"citySlug": "malmo",
		"kommun": "Malmö",
		"lan": "Skåne",
		"opened": 2004,
		"address": "103, Ramels väg, Herrgården, Öster, Malmö",
		"postalCode": "213 69"
	},
	{
		"id": "eslovs-moske-eslovs-islamiska-kulturforening",
		"name": "Eslövs moské / Eslövs Islamiska Kulturförening",
		"lat": 55.842322,
		"lng": 13.317658,
		"city": "Eslöv",
		"citySlug": "eslov",
		"kommun": "Eslöv",
		"lan": "Skåne",
		"opened": 1995,
		"address": "6, Vålarödsvägen, Berga, Eslöv",
		"postalCode": "241 39"
	},
	{
		"id": "helsingborg-moske",
		"name": "Helsingborg Moské",
		"lat": 56.075482,
		"lng": 12.747882,
		"city": "Helsingborg",
		"citySlug": "helsingborg",
		"kommun": "Helsingborg",
		"lan": "Skåne",
		"opened": 1994,
		"address": "Helsingborgs moské, 15, Grusvägen, Dalhem, Helsingborg",
		"postalCode": "254 64"
	},
	{
		"id": "huda-forening",
		"name": "Huda Förening",
		"lat": 55.566353,
		"lng": 13.019739,
		"city": "Malmö",
		"citySlug": "malmo",
		"kommun": "Malmö",
		"lan": "Skåne",
		"opened": 2014,
		"address": "3b, Docentgatan, Hermodsdal, Söder, Malmö",
		"postalCode": "215 52"
	},
	{
		"id": "islamic-center",
		"name": "Islamic Center",
		"lat": 55.569394,
		"lng": 13.060888,
		"city": "Malmö",
		"citySlug": "malmo",
		"kommun": "Malmö",
		"lan": "Skåne",
		"opened": 1984,
		"address": "Jägersrovägen, Jägersro, Öster, Malmö",
		"postalCode": "212 37"
	},
	{
		"id": "islamisk-kultur-centrum-i-malmo",
		"name": "Islamisk Kultur Centrum i Malmö",
		"lat": 55.575943,
		"lng": 12.994291,
		"city": "Malmö",
		"citySlug": "malmo",
		"kommun": "Malmö",
		"lan": "Skåne",
		"opened": 2016,
		"address": "6, Gröndalsgränd, Gröndal, Väster, Malmö",
		"postalCode": "215 63"
	},
	{
		"id": "islamisk-kulturen-in-lund",
		"name": "Islamisk Kulturen in Lund",
		"lat": 55.691825,
		"lng": 13.173471,
		"city": "Lund",
		"citySlug": "lund",
		"kommun": "Lund",
		"lan": "Skåne",
		"address": "18h, Sunnanväg, Klostergården, Söder, Lund",
		"postalCode": "220 09"
	},
	{
		"id": "islamiska-forbundet-i-malmo-lindangen",
		"name": "Islamiska Förbundet i Malmö (Lindängen)",
		"lat": 55.554254,
		"lng": 13.019992,
		"city": "Malmö",
		"citySlug": "malmo",
		"kommun": "Malmö",
		"lan": "Skåne",
		"address": "Gånglåtsvägen, Lindängen, Söder, Malmö",
		"postalCode": "215 78"
	},
	{
		"id": "islamiska-foreningen-helsingborg",
		"name": "Islamiska föreningen Helsingborg",
		"lat": 56.041646,
		"lng": 12.700541,
		"city": "Helsingborg",
		"citySlug": "helsingborg",
		"kommun": "Helsingborg",
		"lan": "Skåne",
		"opened": 1995,
		"address": "15, Carl Krooks gata, Söder, Helsingborg",
		"postalCode": "252 25"
	},
	{
		"id": "islamiska-forsamlingen-i-landskrona",
		"name": "Islamiska församlingen i Landskrona",
		"lat": 55.888425,
		"lng": 12.844255,
		"city": "Landskrona",
		"citySlug": "landskrona",
		"kommun": "Landskrona",
		"lan": "Skåne",
		"opened": 1987,
		"address": "11C, Silvergården, Silverängen, Karlslund, Landskrona",
		"postalCode": "261 41"
	},
	{
		"id": "islamiska-kulturcentret-durimi-i-horby",
		"name": "Islamiska Kulturcentret Durimi i Hörby",
		"lat": 55.843082,
		"lng": 13.674526,
		"city": "Hörby",
		"citySlug": "horby",
		"kommun": "Hörby",
		"lan": "Skåne",
		"opened": 2015,
		"address": "Råbyvägen, Råby, Hörby",
		"postalCode": "242 35"
	},
	{
		"id": "islamiska-kulturforeningen-angelholm",
		"name": "Islamiska Kulturföreningen Ängelholm",
		"lat": 56.244252,
		"lng": 12.864687,
		"city": "Ängelholm",
		"citySlug": "angelholm",
		"kommun": "Ängelholm",
		"lan": "Skåne",
		"opened": 2015,
		"address": "Östergatan, Ängelholm",
		"postalCode": "262 35"
	},
	{
		"id": "islamska-kultur-center-perstorp",
		"name": "Islamska kultur center perstorp",
		"lat": 56.137963,
		"lng": 13.396714,
		"city": "Perstorp",
		"citySlug": "perstorp",
		"kommun": "Perstorp",
		"lan": "Skåne",
		"opened": 2022,
		"address": "Hantverkaregatan, Perstorp",
		"postalCode": "284 31"
	},
	{
		"id": "klippans-moske",
		"name": "Klippans moské",
		"lat": 56.131799,
		"lng": 13.130706,
		"city": "Klippan",
		"citySlug": "klippan",
		"kommun": "Klippan",
		"lan": "Skåne",
		"address": "Åbygatan, Klippan",
		"postalCode": "264 33"
	},
	{
		"id": "lunds-moske-islamiska-kulturcentret-i-lund",
		"name": "Lunds Moské (Islamiska kulturcentret i Lund)",
		"lat": 55.712095,
		"lng": 13.17097,
		"city": "Lund",
		"citySlug": "lund",
		"kommun": "Lund",
		"lan": "Skåne",
		"opened": 1998,
		"address": "14, Åldermansgatan, Kobjer, Kobjärsvången, Väster, Lund",
		"postalCode": "227 64"
	},
	{
		"id": "malmo-islamic-center",
		"name": "Malmö Islamic Center",
		"lat": 55.574959,
		"lng": 13.051455,
		"city": "Malmö",
		"citySlug": "malmo",
		"kommun": "Malmö",
		"lan": "Skåne",
		"address": "Västra Skrävlinge kyrkoväg 1 Malmö"
	},
	{
		"id": "malmo-muslimska-forsamling",
		"name": "Malmö Muslimska församling",
		"lat": 55.596677,
		"lng": 13.05391,
		"city": "Malmö",
		"citySlug": "malmo",
		"kommun": "Malmö",
		"lan": "Skåne",
		"opened": 1977,
		"address": "Sallerupsvägen, Videdal, Öster, Malmö",
		"postalCode": "212 28"
	},
	{
		"id": "malmo-muslimska-samfund",
		"name": "Malmö Muslimska Samfund",
		"lat": 55.587513,
		"lng": 13.03379,
		"city": "Malmö",
		"citySlug": "malmo",
		"kommun": "Malmö",
		"lan": "Skåne",
		"opened": 2020,
		"address": "8b, Bennets väg, Törnrosen, Öster, Malmö",
		"postalCode": "214 41"
	},
	{
		"id": "masjid-alnour",
		"name": "Masjid Alnour",
		"lat": 56.030151,
		"lng": 14.154346,
		"city": "Kristianstad",
		"citySlug": "kristianstad",
		"kommun": "Kristianstad",
		"lan": "Skåne",
		"address": "6, Västra Vallgatan, Kristianstad City, Kristianstad",
		"postalCode": "291 30"
	},
	{
		"id": "masjid-lund-lunds-moske",
		"name": "Masjid Lund - Lunds Moské - مسجد لوند",
		"lat": 55.693847,
		"lng": 13.24001,
		"city": "Lund",
		"citySlug": "lund",
		"kommun": "Lund",
		"lan": "Skåne",
		"opened": 2010,
		"address": "26c, Vikingavägen, Linero, Öster, Lund",
		"postalCode": "224 77"
	},
	{
		"id": "moske-i-helsingborg",
		"name": "Moské i Helsingborg",
		"lat": 56.01658,
		"lng": 12.728859,
		"city": "Helsingborg",
		"citySlug": "helsingborg",
		"kommun": "Helsingborg",
		"lan": "Skåne",
		"address": "Grusvägen 15, 254 64 Helsingborg"
	},
	{
		"id": "rosengards-kulturcenter-islamiska-forbundet-i-malmo",
		"name": "Rosengårds Kulturcenter - Islamiska Förbundet i Malmö",
		"lat": 55.587426,
		"lng": 13.044567,
		"city": "Malmö",
		"citySlug": "malmo",
		"kommun": "Malmö",
		"lan": "Skåne",
		"opened": 2008,
		"address": "Adlerfelts väg, Apelgården, Öster, Malmö",
		"postalCode": "213 68"
	},
	{
		"id": "skandinaviska-wakf",
		"name": "Skandinaviska Wakf",
		"lat": 55.594239,
		"lng": 13.039668,
		"city": "Malmö",
		"citySlug": "malmo",
		"kommun": "Malmö",
		"lan": "Skåne",
		"opened": 2017,
		"organisation": "Qatar (30 mnkr) av totalkostnad ca 140 mnkr. 8 mnkr från privata investerar i Kuwait.",
		"address": "Det Skandinaviska Wakf i Sverige, 26, Danska vägen, Håkanstorp, Öster, Malmö",
		"postalCode": "212 29"
	},
	{
		"id": "skurup-mosken",
		"name": "Skurup-moskén",
		"lat": 55.481009,
		"lng": 13.501045,
		"city": "Skurup",
		"citySlug": "skurup",
		"kommun": "Skurup",
		"lan": "Skåne",
		"opened": 2020,
		"address": "Kyrkogatan, Skurup",
		"postalCode": "274 34"
	},
	{
		"id": "social-och-kultur-forening-moske",
		"name": "Social och Kultur Förening(Moské)",
		"lat": 56.426691,
		"lng": 12.940112,
		"city": "Östra Karup",
		"citySlug": "ostra-karup",
		"kommun": "Båstad",
		"lan": "Skåne",
		"opened": 2018,
		"address": "Tomtaholmsvägen, Hemmeslöv, Östra Karup",
		"postalCode": "269 41"
	},
	{
		"id": "astorps-moske",
		"name": "Åstorps Moské",
		"lat": 56.136456,
		"lng": 12.947802,
		"city": "Åstorp",
		"citySlug": "astorp",
		"kommun": "Åstorp",
		"lan": "Skåne",
		"opened": 2018,
		"address": "Storgatan, Åstorp",
		"postalCode": "265 34"
	},
	{
		"id": "osterlens-islamic-center-tomelilla-moske",
		"name": "Österlens Islamic Center Tomelilla moské",
		"lat": 55.544453,
		"lng": 13.950791,
		"city": "Tomelilla",
		"citySlug": "tomelilla",
		"kommun": "Tomelilla",
		"lan": "Skåne",
		"opened": 2015,
		"address": "Torget, Tomelilla",
		"postalCode": "273 34"
	},
	{
		"id": "akalla-moske",
		"name": "Akalla Moské",
		"lat": 59.413019,
		"lng": 17.922057,
		"city": "Stockholm",
		"citySlug": "stockholm",
		"kommun": "Stockholm",
		"lan": "Stockholm",
		"opened": 1992,
		"address": "2, Sibeliusgången, Akalla, Järva stadsdelsområde, Stockholm",
		"postalCode": "164 73"
	},
	{
		"id": "akalla-moske-fredagsbon",
		"name": "Akalla Moské Fredagsbön",
		"lat": 59.402477,
		"lng": 17.944345,
		"city": "Stockholm",
		"citySlug": "stockholm",
		"kommun": "Stockholm",
		"lan": "Stockholm",
		"opened": 1992,
		"address": "Pantbanken Sverige, Kistagången, Kista, Järva stadsdelsområde, Stockholm",
		"postalCode": "164 91"
	},
	{
		"id": "al-huda-islamiska-kulturcenter",
		"name": "Al-Huda Islamiska KulturCenter",
		"lat": 58.910373,
		"lng": 17.933358,
		"city": "Nynäshamn",
		"citySlug": "nynashamn",
		"kommun": "Nynäshamn",
		"lan": "Stockholm",
		"opened": 2017,
		"organisation": "Källarmoské troligen.",
		"address": "Backluravägen, Nickstahöjden, Nynäshamn",
		"postalCode": "149 43"
	},
	{
		"id": "alby-moske",
		"name": "Alby moské",
		"lat": 59.240585,
		"lng": 17.858,
		"city": "Alby",
		"citySlug": "alby",
		"kommun": "Botkyrka",
		"lan": "Stockholm",
		"opened": 1992,
		"organisation": "Botkyrka kommun",
		"address": "Alby moské, Rotemannavägen, Alby",
		"postalCode": "145 57"
	},
	{
		"id": "arrahmah-masjid",
		"name": "Arrahmah Masjid",
		"lat": 59.363971,
		"lng": 17.8781,
		"city": "Stockholm",
		"citySlug": "stockholm",
		"kommun": "Stockholm",
		"lan": "Stockholm",
		"opened": 2009,
		"address": "152, Vällingbyvägen, Vällingby, Hässelby-Vällingby stadsdelsområde, Stockholm",
		"postalCode": "162 55"
	},
	{
		"id": "bro-moske",
		"name": "Bro Moske",
		"lat": 59.512581,
		"lng": 17.654219,
		"city": "Bro",
		"citySlug": "bro",
		"kommun": "Upplands-Bro",
		"lan": "Stockholm",
		"opened": 2009,
		"address": "25A, Fjärilsstigen, Bro",
		"postalCode": "197 35"
	},
	{
		"id": "dawa-tablig-forening",
		"name": "Dawa Tablig Förening",
		"lat": 59.292512,
		"lng": 17.93868,
		"city": "Stockholm",
		"citySlug": "stockholm",
		"kommun": "Stockholm",
		"lan": "Stockholm",
		"address": "51, Vita Liljans Väg, Bredäng, Skärholmens stadsdelsområde, Stockholm",
		"postalCode": "127 34"
	},
	{
		"id": "dawat-e-tablig-mosque-hallunda",
		"name": "Dawat e Tablig Mosque - Hallunda",
		"lat": 59.243904,
		"lng": 17.820853,
		"city": "Eriksberg",
		"citySlug": "eriksberg",
		"kommun": "Botkyrka",
		"lan": "Stockholm",
		"address": "Hallundavägen, Norsborg, Fiskarhagen",
		"postalCode": "145 69"
	},
	{
		"id": "eritreanska-mosken-i-tensta",
		"name": "Eritreanska moskén i Tensta",
		"lat": 59.397127,
		"lng": 17.908714,
		"city": "Stockholm",
		"citySlug": "stockholm",
		"kommun": "Stockholm",
		"lan": "Stockholm",
		"opened": 2024,
		"address": "46, Lättingebacken, Sörgården, Tensta, Järva stadsdelsområde, Stockholm",
		"postalCode": "163 62"
	},
	{
		"id": "fatih-moske",
		"name": "Fatih Moské",
		"lat": 59.341895,
		"lng": 18.057846,
		"city": "Stockholm",
		"citySlug": "stockholm",
		"kommun": "Stockholm",
		"lan": "Stockholm",
		"opened": 1986,
		"address": "94, Sveavägen, Sibirien, Vasastaden, Norra innerstadens stadsdelsområde, Stockholm",
		"postalCode": "113 59"
	},
	{
		"id": "fisksatra-moske",
		"name": "Fisksätra moske",
		"lat": 59.291851,
		"lng": 18.253435,
		"city": "Saltsjöbaden",
		"citySlug": "saltsjobaden",
		"kommun": "Nacka",
		"lan": "Stockholm",
		"opened": 1996,
		"organisation": "Islamiska kulturföreningen i Nacka",
		"address": "16, Mörtgatan, Lännersta, Saltsjöbaden",
		"postalCode": "133 43"
	},
	{
		"id": "fittja-moske",
		"name": "Fittja moské",
		"lat": 59.251185,
		"lng": 17.867994,
		"city": "Fittja",
		"citySlug": "fittja",
		"kommun": "Botkyrka",
		"lan": "Stockholm",
		"opened": 2007,
		"address": "Fittja moské, 10, Tegelbruksvägen, Alby",
		"postalCode": "145 53"
	},
	{
		"id": "flemingsbergs-moske",
		"name": "Flemingsbergs moské",
		"lat": 59.224638,
		"lng": 17.942502,
		"city": "Huddinge",
		"citySlug": "huddinge",
		"kommun": "Huddinge",
		"lan": "Stockholm",
		"opened": 1995,
		"address": "Diagnosvägen, Flemingsberg, Huddinge",
		"postalCode": "141 54"
	},
	{
		"id": "handen-moske-haninge",
		"name": "Handen moské",
		"lat": 59.159639,
		"lng": 18.142677,
		"city": "Haninge",
		"citySlug": "haninge",
		"kommun": "Haninge",
		"lan": "Stockholm",
		"opened": 1994,
		"address": "Vallavägen 6, Handen",
		"postalCode": "136 41"
	},
	{
		"id": "haninge-islamiska-forum-in",
		"name": "Haninge Islamiska Forum In",
		"lat": 59.167937,
		"lng": 18.135486,
		"city": "Handen",
		"citySlug": "handen",
		"kommun": "Haninge",
		"lan": "Stockholm",
		"opened": 2015,
		"address": "Handens stationsväg, Mellanberg, Handen",
		"postalCode": "136 81"
	},
	{
		"id": "husby-islamiska-kulturcenter",
		"name": "Husby Islamiska Kulturcenter",
		"lat": 59.4063,
		"lng": 17.933014,
		"city": "Stockholm",
		"citySlug": "stockholm",
		"kommun": "Stockholm",
		"lan": "Stockholm",
		"opened": 1986,
		"address": "Edvard Griegsgången, Husby, Järva stadsdelsområde, Stockholm",
		"postalCode": "164 34"
	},
	{
		"id": "hasselby-moske",
		"name": "Hässelby moské",
		"lat": 59.366148,
		"lng": 17.847013,
		"city": "Stockholm",
		"citySlug": "stockholm",
		"kommun": "Stockholm",
		"lan": "Stockholm",
		"address": "128, Kvarnhagsgatan, Hässelby gård, Hässelby-Vällingby stadsdelsområde, Stockholm",
		"postalCode": "165 56"
	},
	{
		"id": "islamisk-kulturell-forening",
		"name": "Islamisk kulturell förening الجمعية الثقافية الإسلامية",
		"lat": 59.186769,
		"lng": 17.610691,
		"city": "Södertälje",
		"citySlug": "sodertalje",
		"kommun": "Södertälje",
		"lan": "Stockholm",
		"opened": 2008,
		"address": "40, Erikshällsgatan, Mariekälla, Tälje, Södertälje",
		"postalCode": "151 45"
	},
	{
		"id": "islamiska-forbundet-i-jarva",
		"name": "Islamiska Förbundet I Järva",
		"lat": 59.38941,
		"lng": 17.928368,
		"city": "Stockholm",
		"citySlug": "stockholm",
		"kommun": "Stockholm",
		"lan": "Stockholm",
		"opened": 1992,
		"address": "Hinderstorps gränd, Rinkeby, Järva stadsdelsområde, Stockholm",
		"postalCode": "163 73"
	},
	{
		"id": "islamiska-foreningen-i-botkyrka",
		"name": "Islamiska föreningen i Botkyrka جمعية الثقافة الاسلامية في بوتشيركا",
		"lat": 59.246367,
		"lng": 17.85461,
		"city": "Fittja",
		"citySlug": "fittja",
		"kommun": "Botkyrka",
		"lan": "Stockholm",
		"opened": 1991,
		"address": "Krögarvägen, Slagsta",
		"postalCode": "145 52"
	},
	{
		"id": "islamiska-foreningen-i-stockholm",
		"name": "Islamiska Föreningen I Stockholm",
		"lat": 59.336515,
		"lng": 18.064867,
		"city": "Stockholm",
		"citySlug": "stockholm",
		"kommun": "Stockholm",
		"lan": "Stockholm",
		"opened": 1986,
		"address": "34, Apelbergsgatan, Norrmalm, Norra innerstadens stadsdelsområde, Stockholm",
		"postalCode": "111 38"
	},
	{
		"id": "islamiska-forsamlingen-haninge",
		"name": "Islamiska Församlingen Haninge",
		"lat": 59.172701,
		"lng": 18.16855,
		"city": "Haninge",
		"citySlug": "haninge",
		"kommun": "Haninge",
		"lan": "Stockholm",
		"opened": 1986,
		"address": "Jungfruns gata, Brandbergen, Handen",
		"postalCode": "136 60"
	},
	{
		"id": "islamiska-kulturcenter",
		"name": "Islamiska Kulturcenter",
		"lat": 59.383508,
		"lng": 17.933685,
		"city": "Stockholm",
		"citySlug": "stockholm",
		"kommun": "Stockholm",
		"lan": "Stockholm",
		"opened": 1992,
		"address": "Rinkebysvängen, Rinkeby, Järva stadsdelsområde, Stockholm",
		"postalCode": "163 74"
	},
	{
		"id": "islamiska-kulturforeningen-i-stockholm",
		"name": "Islamiska Kulturföreningen i Stockholm",
		"lat": 59.31415,
		"lng": 18.078291,
		"city": "Stockholm",
		"citySlug": "stockholm",
		"kommun": "Stockholm",
		"lan": "Stockholm",
		"opened": 2000,
		"address": "23, Kocksgatan, Södermalm, Södermalms stadsdelsområde, Stockholm",
		"postalCode": "116 24"
	},
	{
		"id": "islamiskt-kulturcentrum-i-jordbro",
		"name": "Islamiskt Kulturcentrum i Jordbro",
		"lat": 59.14031,
		"lng": 18.145409,
		"city": "Jordbro",
		"citySlug": "jordbro",
		"kommun": "Haninge",
		"lan": "Stockholm",
		"opened": 2000,
		"address": "180, Södra Jordbrovägen, Kalvsvik, Jordbro",
		"postalCode": "137 68"
	},
	{
		"id": "jordbro-moske",
		"name": "JORDBRO MOSKE",
		"lat": 59.140882,
		"lng": 18.134229,
		"city": "Jordbro",
		"citySlug": "jordbro",
		"kommun": "Haninge",
		"lan": "Stockholm",
		"opened": 2010,
		"address": "25, Moränvägen, Jordbro",
		"postalCode": "137 64"
	},
	{
		"id": "jarfalla-moske",
		"name": "Järfälla Moské",
		"lat": 59.414088,
		"lng": 17.84995,
		"city": "Jakobsberg",
		"citySlug": "jakobsberg",
		"kommun": "Järfälla",
		"lan": "Stockholm",
		"address": "Snapphanevägen, Veddesta",
		"postalCode": "177 38"
	},
	{
		"id": "khadija-center-mosken-och-komplexet-tillagnat-khadija",
		"name": "Khadija Center , Moskén och komplexet tillägnat Khadija",
		"lat": 59.401912,
		"lng": 17.94256,
		"city": "Stockholm",
		"citySlug": "stockholm",
		"kommun": "Stockholm",
		"lan": "Stockholm",
		"opened": 2018,
		"address": "Kista torg, Kista, Järva stadsdelsområde, Stockholm",
		"postalCode": "164 42"
	},
	{
		"id": "masjid-al-imam-malek",
		"name": "Masjid Al-Imam Malek",
		"lat": 59.290515,
		"lng": 18.001795,
		"city": "Stockholm",
		"citySlug": "stockholm",
		"kommun": "Stockholm",
		"lan": "Stockholm",
		"address": "36, Safirgränd, Solberga, Hägersten-Älvsjö stadsdelsområde, Stockholm",
		"postalCode": "126 79"
	},
	{
		"id": "marsta-islamiska-center-masjid",
		"name": "Märsta islamiska Center , Masjid",
		"lat": 59.614357,
		"lng": 17.880576,
		"city": "Märsta",
		"citySlug": "marsta",
		"kommun": "Sigtuna",
		"lan": "Stockholm",
		"opened": 2016,
		"address": "Söderbyvägen, Märsta",
		"postalCode": "195 60"
	},
	{
		"id": "marsta-moske",
		"name": "Märsta Moské",
		"lat": 59.623171,
		"lng": 17.851207,
		"city": "Märsta",
		"citySlug": "marsta",
		"kommun": "Sigtuna",
		"lan": "Stockholm",
		"opened": 1999,
		"address": "Stockholmsvägen, Steninge, Märsta",
		"postalCode": "195 46"
	},
	{
		"id": "negashimoskeen",
		"name": "Negashimoskéen",
		"lat": 59.376948,
		"lng": 17.96575,
		"city": "Sundbyberg",
		"citySlug": "sundbyberg",
		"kommun": "Sundbyberg",
		"lan": "Stockholm",
		"opened": 1999,
		"organisation": "Drivs av en ideell förening och finansieras främst av den egna gemenskapen.",
		"address": "2, Skolgången, Hallonbergen",
		"postalCode": "174 52"
	},
	{
		"id": "rimbo-moske",
		"name": "Rimbo moskè",
		"lat": 59.744689,
		"lng": 18.372333,
		"city": "Rimbo",
		"citySlug": "rimbo",
		"kommun": "Norrtälje",
		"lan": "Stockholm",
		"address": "Valterlind, 5, Verkstadsvägen, Karby, Rimbo",
		"postalCode": "762 51"
	},
	{
		"id": "rinkeby-mevlana-mosken",
		"name": "Rinkeby Mevlana Moskén",
		"lat": 59.386736,
		"lng": 17.933504,
		"city": "Stockholm",
		"citySlug": "stockholm",
		"kommun": "Stockholm",
		"lan": "Stockholm",
		"address": "Rinkeby allé, Rinkeby, Järva stadsdelsområde, Stockholm",
		"postalCode": "163 74"
	},
	{
		"id": "rissne-moske",
		"name": "Rissne Moske",
		"lat": 59.517891,
		"lng": 17.940847,
		"city": "Upplands Väsby",
		"citySlug": "upplands-vasby",
		"kommun": "Upplands Väsby",
		"lan": "Stockholm",
		"address": "8, Frodevägen, Odenslunda, Fresta, Upplands Väsby",
		"postalCode": "194 54"
	},
	{
		"id": "ragsved-moske-islamic-center-sweden-ics-afghan-islamic-center",
		"name": "Rågsved Moske, Islamic Center Sweden (ICS) AFGHAN ISLAMIC CENTER",
		"lat": 59.259392,
		"lng": 18.033567,
		"city": "Stockholm",
		"citySlug": "stockholm",
		"kommun": "Stockholm",
		"lan": "Stockholm",
		"opened": 2014,
		"address": "1, Hardemogatan, Rågsved, Enskede-Årsta-Vantörs stadsdelsområde, Stockholm",
		"postalCode": "124 67"
	},
	{
		"id": "skarholmens-moske",
		"name": "Skärholmens moské",
		"lat": 59.274484,
		"lng": 17.906543,
		"city": "Stockholm",
		"citySlug": "stockholm",
		"kommun": "Stockholm",
		"lan": "Stockholm",
		"address": "Bredholmsgatan, Skärholmen, Skärholmens stadsdelsområde, Stockholm",
		"postalCode": "127 48"
	},
	{
		"id": "sollentuna-moske",
		"name": "Sollentuna Moské",
		"lat": 59.429376,
		"lng": 17.945227,
		"city": "Sollentuna",
		"citySlug": "sollentuna",
		"kommun": "Sollentuna",
		"lan": "Stockholm",
		"opened": 1987,
		"address": "11B, Oppegårdsstråket, Töjnan, Tureberg",
		"postalCode": "191 60"
	},
	{
		"id": "somaliska-forening-i-sodertalje",
		"name": "Somaliska förening i Södertälje",
		"lat": 59.1974,
		"lng": 17.64844,
		"city": "Södertälje",
		"citySlug": "sodertalje",
		"kommun": "Södertälje",
		"lan": "Stockholm",
		"opened": 2012,
		"address": "2, Höglandsvägen, Rosenlund, Södertälje",
		"postalCode": "152 31"
	},
	{
		"id": "spanga-camii-moske",
		"name": "Spanga Camii - moské",
		"lat": 59.388336,
		"lng": 17.932457,
		"city": "Stockholm",
		"citySlug": "stockholm",
		"kommun": "Stockholm",
		"lan": "Stockholm",
		"address": "Västerby backe, Rinkeby, Järva stadsdelsområde, Stockholm",
		"postalCode": "163 73"
	},
	{
		"id": "stockholms-moske",
		"name": "Stockholms Moské",
		"lat": 59.316159,
		"lng": 18.076379,
		"city": "Stockholm",
		"citySlug": "stockholm",
		"kommun": "Stockholm",
		"lan": "Stockholm",
		"opened": 2000,
		"address": "Kapellgränd, Södermalm, Södermalms stadsdelsområde, Stockholm",
		"postalCode": "116 25"
	},
	{
		"id": "tensta-mosken",
		"name": "Tensta Moskén",
		"lat": 59.39468,
		"lng": 17.900877,
		"city": "Stockholm",
		"citySlug": "stockholm",
		"kommun": "Stockholm",
		"lan": "Stockholm",
		"opened": 1996,
		"address": "Tenstagången, Tensta, Järva stadsdelsområde, Stockholm",
		"postalCode": "163 64"
	},
	{
		"id": "turkiskt-islamiskt-kulturcenter-i-stockholm",
		"name": "Turkiskt islamiskt kulturcenter i Stockholm",
		"lat": 59.387531,
		"lng": 17.929945,
		"city": "Stockholm",
		"citySlug": "stockholm",
		"kommun": "Stockholm",
		"lan": "Stockholm",
		"opened": 1988,
		"address": "Rinkebyplan, Rinkeby, Järva stadsdelsområde, Stockholm",
		"postalCode": "163 73"
	},
	{
		"id": "tyreso-islamiska-kulturforening",
		"name": "Tyresö Islamiska Kulturförening",
		"lat": 59.248079,
		"lng": 18.233091,
		"city": "Älta",
		"citySlug": "alta",
		"kommun": "Tyresö",
		"lan": "Stockholm",
		"opened": 1997,
		"organisation": "Kommunen",
		"address": "1, 3, 5, 7, 9, 11, 13, 15, 17, 19, 21, 23, Sikvägen, Bollmora",
		"postalCode": "135 31"
	},
	{
		"id": "vasby-moske",
		"name": "Väsby moské",
		"lat": 59.526848,
		"lng": 17.917371,
		"city": "Upplands Väsby",
		"citySlug": "upplands-vasby",
		"kommun": "Upplands Väsby",
		"lan": "Stockholm",
		"opened": 2016,
		"address": "62, Hammarbyvägen, Väsbyskogen, Vilunda, Upplands Väsby",
		"postalCode": "194 37"
	},
	{
		"id": "al-zaiotuna-kulturforening-moske",
		"name": "Al-Zaiotuna-kulturförening Moske",
		"lat": 59.047851,
		"lng": 17.307762,
		"city": "Gnesta",
		"citySlug": "gnesta",
		"kommun": "Gnesta",
		"lan": "Södermanland",
		"opened": 2019,
		"address": "Kullagatan, Frönäs, Gnesta",
		"postalCode": "646 80"
	},
	{
		"id": "ar-rahman-moske",
		"name": "Ar-rahman moské",
		"lat": 59.367223,
		"lng": 16.508485,
		"city": "Eskilstuna",
		"citySlug": "eskilstuna",
		"kommun": "Eskilstuna",
		"lan": "Södermanland",
		"address": "Järntorgsgatan, Nyfors, Snopptorp, Eskilstuna",
		"postalCode": "632 27"
	},
	{
		"id": "eritreanska-islamiska-foreningen-i-eskilstuna",
		"name": "Eritreanska Islamiska Föreningen i Eskilstuna",
		"lat": 59.35868,
		"lng": 16.50532,
		"city": "Eskilstuna",
		"citySlug": "eskilstuna",
		"kommun": "Eskilstuna",
		"lan": "Södermanland",
		"address": "Bellmansplan, Snopptorp, Eskilstuna",
		"postalCode": "632 29"
	},
	{
		"id": "eskilstuna",
		"name": "Eskilstuna",
		"lat": 59.384947,
		"lng": 16.514438,
		"city": "Eskilstuna",
		"citySlug": "eskilstuna",
		"kommun": "Eskilstuna",
		"lan": "Södermanland",
		"address": "Årbygatan 6 Eskilstuna"
	},
	{
		"id": "flens-moske",
		"name": "Flens Moske",
		"lat": 59.054584,
		"lng": 16.586381,
		"city": "Flen",
		"citySlug": "flen",
		"kommun": "Flen",
		"lan": "Södermanland",
		"address": "Floragatan, Salsta, Flen",
		"postalCode": "642 35"
	},
	{
		"id": "flens-moske-flen",
		"name": "Flens moské",
		"lat": 59.055308,
		"lng": 16.595292,
		"city": "Flen",
		"citySlug": "flen",
		"kommun": "Flen",
		"lan": "Södermanland"
	},
	{
		"id": "katarinaholm-mosken",
		"name": "Katarinaholm-moskén",
		"lat": 58.991741,
		"lng": 16.168463,
		"city": "Katrineholm",
		"citySlug": "katrineholm",
		"kommun": "Katrineholm",
		"lan": "Södermanland",
		"opened": 1994,
		"address": "Värmbolsvägen, Värmbol, Katrineholm",
		"postalCode": "641 51"
	},
	{
		"id": "nykopings-moske",
		"name": "Nyköpings moské",
		"lat": 58.753915,
		"lng": 17.014096,
		"city": "Nyköping",
		"citySlug": "nykoping",
		"kommun": "Nyköping",
		"lan": "Södermanland",
		"opened": 1994,
		"address": "Nyköpings moské, 4, S:t Annegatan, Öster, Nyköping",
		"postalCode": "611 34"
	},
	{
		"id": "osniakiska-islamiska-samfundet-i-sverige-forsamlingen-trosa",
		"name": "osniakiska Islamiska Samfundet i Sverige - Församlingen Trosa",
		"lat": 58.946996,
		"lng": 17.477194,
		"city": "Vagnhärad",
		"citySlug": "vagnharad",
		"kommun": "Trosa",
		"lan": "Södermanland",
		"opened": 2020,
		"address": "Skolvägen, Vagnhärad",
		"postalCode": "619 71"
	},
	{
		"id": "oxelosund-masjed",
		"name": "Oxelösund-Masjed",
		"lat": 58.671689,
		"lng": 17.108094,
		"city": "Oxelösund",
		"citySlug": "oxelosund",
		"kommun": "Oxelösund",
		"lan": "Södermanland",
		"address": "Föreningsgatan, Stenvik, Oxelösund",
		"postalCode": "613 31"
	},
	{
		"id": "sabirin-mosken",
		"name": "Sabirin Moskén",
		"lat": 59.361872,
		"lng": 16.526905,
		"city": "Eskilstuna",
		"citySlug": "eskilstuna",
		"kommun": "Eskilstuna",
		"lan": "Södermanland",
		"opened": 2002,
		"address": "Stensborgsgatan, Spiken-Synthesen, Söder, Eskilstuna",
		"postalCode": "633 55"
	},
	{
		"id": "strangnas-moske",
		"name": "Strängnäs Moské",
		"lat": 59.375866,
		"lng": 17.031533,
		"city": "Strängnäs",
		"citySlug": "strangnas",
		"kommun": "Strängnäs",
		"lan": "Södermanland",
		"opened": 2003,
		"address": "Gyllenhjelmsgatan, Abborrberget, Strängnäs",
		"postalCode": "645 30"
	},
	{
		"id": "arby-moske",
		"name": "Årby Moské",
		"lat": 59.383672,
		"lng": 16.523554,
		"city": "Eskilstuna",
		"citySlug": "eskilstuna",
		"kommun": "Eskilstuna",
		"lan": "Södermanland",
		"opened": 2013,
		"address": "Årbygatan, Eskilshem, Gamla staden, Eskilstuna",
		"postalCode": "633 44"
	},
	{
		"id": "enkoping-moske",
		"name": "Enköping moské",
		"lat": 59.646361,
		"lng": 17.0839,
		"city": "Enköping",
		"citySlug": "enkoping",
		"kommun": "Enköping",
		"lan": "Uppsala",
		"opened": 2016,
		"address": "Östra Järnvägsgatan, Myran, Enköping",
		"postalCode": "745 34"
	},
	{
		"id": "gottsunda-moske",
		"name": "Gottsunda moske",
		"lat": 59.811794,
		"lng": 17.621675,
		"city": "Uppsala",
		"citySlug": "uppsala",
		"kommun": "Uppsala",
		"lan": "Uppsala",
		"opened": 2003,
		"address": "Stenhammars Väg, Södra Gottsunda, Gottsunda, Uppsala",
		"postalCode": "756 48"
	},
	{
		"id": "knivsta-mosque",
		"name": "Knivsta Mosque",
		"lat": 59.724857,
		"lng": 17.79051,
		"city": "Knivsta",
		"citySlug": "knivsta",
		"kommun": "Knivsta",
		"lan": "Uppsala",
		"opened": 2017,
		"address": "6g, Forsbyvägen, Nya Tarv, Knivsta",
		"postalCode": "741 40"
	},
	{
		"id": "inget-kant-officiellt-namn-kallarmoske",
		"name": "Moské i Tierp",
		"lat": 60.342752,
		"lng": 17.513478,
		"city": "Tierp",
		"citySlug": "tierp",
		"kommun": "Tierp",
		"lan": "Uppsala",
		"opened": 2010,
		"organisation": "Tierps somaliska förening",
		"address": "Södra Esplanaden, Tierp",
		"postalCode": "815 88"
	},
	{
		"id": "stenhagen-moske",
		"name": "Stenhagen Moske",
		"lat": 59.853177,
		"lng": 17.571393,
		"city": "Uppsala",
		"citySlug": "uppsala",
		"kommun": "Uppsala",
		"lan": "Uppsala",
		"address": "Stenhagsvägen, Stenhagen, Uppsala",
		"postalCode": "752 60"
	},
	{
		"id": "uppsala-moske-uppsala",
		"name": "Uppsala moské",
		"lat": 59.874003,
		"lng": 17.638216,
		"city": "Uppsala",
		"citySlug": "uppsala",
		"kommun": "Uppsala",
		"lan": "Uppsala",
		"opened": 1995,
		"address": "Vattholmavägen 11, Uppsala",
		"postalCode": "754 19"
	},
	{
		"id": "islamiska-kultur-centret-i-saffle",
		"name": "Islamiska kultur centret i Säffle",
		"lat": 59.115482,
		"lng": 12.904987,
		"city": "Säffle",
		"citySlug": "saffle",
		"kommun": "Säffle",
		"lan": "Värmland",
		"opened": 2011,
		"address": "Industrigatan, Höglunda, Säffle",
		"postalCode": "661 32"
	},
	{
		"id": "islamiska-kulturella-foreningen-i-filipstad",
		"name": "Islamiska kulturella föreningen i Filipstad",
		"lat": 59.710239,
		"lng": 14.16152,
		"city": "Filipstad",
		"citySlug": "filipstad",
		"kommun": "Filipstad",
		"lan": "Värmland",
		"opened": 2012,
		"address": "4, Allégatan, Filipstad",
		"postalCode": "682 27"
	},
	{
		"id": "karlstad",
		"name": "Karlstad",
		"lat": 59.40228,
		"lng": 13.573133,
		"city": "Alster",
		"citySlug": "alster",
		"kommun": "Karlstad",
		"lan": "Värmland",
		"address": "Signalhornsgatan 36 Karlstad"
	},
	{
		"id": "karlstad-moske",
		"name": "Karlstad Moské",
		"lat": 59.406352,
		"lng": 13.566199,
		"city": "Karlstad",
		"citySlug": "karlstad",
		"kommun": "Karlstad",
		"lan": "Värmland",
		"opened": 1993,
		"address": "Jakthornsgatan, Östra Kroppkärr, Kronoparken, Karlstad",
		"postalCode": "656 32"
	},
	{
		"id": "kronoparkens-moske",
		"name": "Kronoparkens Moské",
		"lat": 59.405958,
		"lng": 13.568171,
		"city": "Alster",
		"citySlug": "alster",
		"kommun": "Karlstad",
		"lan": "Värmland"
	},
	{
		"id": "sunne-moske",
		"name": "Sunne moskè",
		"lat": 59.843836,
		"lng": 13.141248,
		"city": "Sunne",
		"citySlug": "sunne",
		"kommun": "Sunne",
		"lan": "Värmland",
		"postalCode": "686 31"
	},
	{
		"id": "saffle-mosken",
		"name": "Säffle moskén",
		"lat": 59.13458,
		"lng": 12.913591,
		"city": "Säffle",
		"citySlug": "saffle",
		"kommun": "Säffle",
		"lan": "Värmland",
		"address": "Vintergatan 1E 66132 Säffle"
	},
	{
		"id": "alidhem-mosque",
		"name": "Alidhem Mosque",
		"lat": 63.813074,
		"lng": 20.308735,
		"city": "Umeå",
		"citySlug": "umea",
		"kommun": "Umeå",
		"lan": "Västerbotten",
		"address": "9A, Pedagoggränd, Ålidhem, Ålidhemsområdet, Umeå",
		"postalCode": "907 30"
	},
	{
		"id": "skelleftea-moske",
		"name": "Skellefteå Moské",
		"lat": 64.750981,
		"lng": 20.955305,
		"city": "Skellefteå",
		"citySlug": "skelleftea",
		"kommun": "Skellefteå",
		"lan": "Västerbotten",
		"opened": 1996,
		"address": "Hörnellgatan, Centrum, Skellefteå",
		"postalCode": "931 30"
	},
	{
		"id": "umea-moske",
		"name": "Umeå Moské",
		"lat": 63.82753,
		"lng": 20.258809,
		"city": "Umeå",
		"citySlug": "umea",
		"kommun": "Umeå",
		"lan": "Västerbotten",
		"opened": 1999,
		"address": "Skolgatan, Centrum, Centrala stan, Umeå",
		"postalCode": "903 27"
	},
	{
		"id": "al-salam-mosken",
		"name": "Al Salam Moskén",
		"lat": 62.629607,
		"lng": 17.934895,
		"city": "Härnösand",
		"citySlug": "harnosand",
		"kommun": "Härnösand",
		"lan": "Västernorrland",
		"opened": 2016,
		"address": "Tullportens konditori, 10B, Storgatan, Mellanholmen, Härnösand, Härnösands domkyrkodistrikt",
		"postalCode": "871 45"
	},
	{
		"id": "al-rahma-mosken-harnosand",
		"name": "Al-Rahma Moskén Härnösand",
		"lat": 62.646661,
		"lng": 17.925026,
		"city": "Härnösand",
		"citySlug": "harnosand",
		"kommun": "Härnösand",
		"lan": "Västernorrland",
		"opened": 2012,
		"address": "Murbergsvägen, Murberget, Härnösand, Härnösands domkyrkodistrikt",
		"postalCode": "871 50"
	},
	{
		"id": "harnosand",
		"name": "Härnösand",
		"lat": 62.635375,
		"lng": 17.93632,
		"city": "Härnösand",
		"citySlug": "harnosand",
		"kommun": "Härnösand",
		"lan": "Västernorrland",
		"address": "Magasingatan 5 Härnösand"
	},
	{
		"id": "kulturcenter-i-ovik",
		"name": "KulturCenter i Övik",
		"lat": 63.285317,
		"lng": 18.745583,
		"city": "Örnsköldsvik",
		"citySlug": "ornskoldsvik",
		"kommun": "Örnsköldsvik",
		"lan": "Västernorrland",
		"opened": 2017
	},
	{
		"id": "sundsvalls-moske",
		"name": "Sundsvalls moské",
		"lat": 62.385916,
		"lng": 17.309401,
		"city": "Sundsvall",
		"citySlug": "sundsvall",
		"kommun": "Sundsvall",
		"lan": "Västernorrland",
		"opened": 2010,
		"address": "37, Nybrogatan, Stenstan, Centrum, Sundsvall",
		"postalCode": "852 36"
	},
	{
		"id": "aisha-center",
		"name": "Aisha center",
		"lat": 59.614956,
		"lng": 16.566704,
		"city": "Västerås",
		"citySlug": "vasteras",
		"kommun": "Västerås",
		"lan": "Västmanland",
		"opened": 2012,
		"address": "9, Ängsgärdsgatan, Ängsgärdet, Västerås",
		"postalCode": "721 30"
	},
	{
		"id": "al-rahma-mosken",
		"name": "Al-Rahma Moskén",
		"lat": 59.613,
		"lng": 16.561865,
		"city": "Västerås",
		"citySlug": "vasteras",
		"kommun": "Västerås",
		"lan": "Västmanland",
		"opened": 2018,
		"postalCode": "721 30"
	},
	{
		"id": "fagersta-mosken",
		"name": "Fagersta-moskén",
		"lat": 60.00419,
		"lng": 15.794366,
		"city": "Fagersta",
		"citySlug": "fagersta",
		"kommun": "Fagersta",
		"lan": "Västmanland",
		"address": "Vilhelminavägen, Apollo, Fagersta",
		"postalCode": "737 45"
	},
	{
		"id": "kalam-akademin",
		"name": "Kalam Akademin",
		"lat": 59.600736,
		"lng": 16.480523,
		"city": "Örtagården",
		"citySlug": "ortagarden",
		"kommun": "Västerås",
		"lan": "Västmanland",
		"opened": 2024,
		"postalCode": "724 73"
	},
	{
		"id": "kopings-moske",
		"name": "Köpings Moské",
		"lat": 59.517138,
		"lng": 15.984148,
		"city": "Köping",
		"citySlug": "koping",
		"kommun": "Köping",
		"lan": "Västmanland",
		"address": "Scheelegatan, Byjorden, Köping",
		"postalCode": "731 50"
	},
	{
		"id": "kopings-sunnah-islamiska-forening",
		"name": "Köpings Sunnah Islamiska Förening",
		"lat": 59.520327,
		"lng": 15.988531,
		"city": "Köping",
		"citySlug": "koping",
		"kommun": "Köping",
		"lan": "Västmanland",
		"address": "Mariebergsgatan, Nyckelberget, Köping",
		"postalCode": "731 98"
	},
	{
		"id": "moske",
		"name": "Moské",
		"lat": 59.616149,
		"lng": 16.514483,
		"city": "Västerås",
		"citySlug": "vasteras",
		"kommun": "Västerås",
		"lan": "Västmanland",
		"address": "91, Jakobsgatan, Vetterslund, Västerås",
		"postalCode": "724 63"
	},
	{
		"id": "namnlos-i-osm-vasteras",
		"name": "Moské i Västerås",
		"lat": 59.601316,
		"lng": 16.470774,
		"city": "Västerås",
		"citySlug": "vasteras",
		"kommun": "Västerås",
		"lan": "Västmanland"
	},
	{
		"id": "moske-i-vasteras",
		"name": "Moské i Västerås",
		"lat": 59.604942,
		"lng": 16.496631,
		"city": "Västerås",
		"citySlug": "vasteras",
		"kommun": "Västerås",
		"lan": "Västmanland",
		"address": "Stora Gatan 88, 724 60 Västerås"
	},
	{
		"id": "vasteras-moske",
		"name": "Västerås Moské",
		"lat": 59.616671,
		"lng": 16.553164,
		"city": "Västerås",
		"citySlug": "vasteras",
		"kommun": "Västerås",
		"lan": "Västmanland",
		"opened": 2002,
		"address": "Kopparbergsvägen, Karlsdal, Västerås",
		"postalCode": "722 14"
	},
	{
		"id": "vasteras-mosken",
		"name": "Västerås Moskén",
		"lat": 59.606881,
		"lng": 16.53344,
		"city": "Västerås",
		"citySlug": "vasteras",
		"kommun": "Västerås",
		"lan": "Västmanland",
		"opened": 2002,
		"address": "88, Stora gatan, Västermalm, Västerås",
		"postalCode": "724 61"
	},
	{
		"id": "al-salam-khovdeh-mosque",
		"name": "Al-Salam Khovdeh Mosque",
		"lat": 58.388731,
		"lng": 13.865413,
		"city": "Skövde",
		"citySlug": "skovde",
		"kommun": "Skövde",
		"lan": "Västra Götaland",
		"opened": 2021,
		"address": "Grenanders gata, Östermalm, Skövde",
		"postalCode": "541 35"
	},
	{
		"id": "alsalam-moske",
		"name": "Alsalam Moske",
		"lat": 57.729744,
		"lng": 12.020745,
		"city": "Göteborg",
		"citySlug": "goteborg",
		"kommun": "Göteborg",
		"lan": "Västra Götaland"
	},
	{
		"id": "angered-islamiska-forsamling",
		"name": "Angered Islamiska Församling",
		"lat": 57.799522,
		"lng": 12.042996,
		"city": "Göteborg",
		"citySlug": "goteborg",
		"kommun": "Göteborg",
		"lan": "Västra Götaland",
		"opened": 2015,
		"address": "Angeredsvinkeln, Angered, Angereds Centrum, Nordost, Göteborg, Göteborgs Stad",
		"postalCode": "424 67"
	},
	{
		"id": "bellevue-moske",
		"name": "Bellevue Moské",
		"lat": 57.730172,
		"lng": 12.022422,
		"city": "Göteborg",
		"citySlug": "goteborg",
		"kommun": "Göteborg",
		"lan": "Västra Götaland",
		"opened": 1993,
		"address": "Stallmästaregatan, Kviberg, Gamlestaden, Nordost, Göteborg, Göteborgs Stad",
		"postalCode": "415 05"
	},
	{
		"id": "boras-moske",
		"name": "Borås Moské",
		"lat": 57.721198,
		"lng": 12.930883,
		"city": "Borås",
		"citySlug": "boras",
		"kommun": "Borås",
		"lan": "Västra Götaland",
		"opened": 1998,
		"address": "16, Magasinsgatan, Norrby, Borås",
		"postalCode": "504 35"
	},
	{
		"id": "bosniakiska-islamiska-samfundet",
		"name": "Bosniakiska Islamiska Samfundet",
		"lat": 58.271395,
		"lng": 12.304382,
		"city": "Trollhättan",
		"citySlug": "trollhattan",
		"kommun": "Trollhättan",
		"lan": "Västra Götaland",
		"address": "Slåttervägen 44 46161"
	},
	{
		"id": "bosnisk-islamiska-forsamlingen-boras",
		"name": "Bosnisk Islamiska Församlingen Borås",
		"lat": 57.716438,
		"lng": 12.896685,
		"city": "Borås",
		"citySlug": "boras",
		"kommun": "Borås",
		"lan": "Västra Götaland",
		"opened": 1994,
		"address": "9, Teknikgatan, Tullen, Borås",
		"postalCode": "504 62"
	},
	{
		"id": "bosniska-islamiska-forsamlingen-goteborg",
		"name": "Bosniska Islamiska Församlingen Göteborg",
		"lat": 57.731385,
		"lng": 12.024033,
		"city": "Göteborg",
		"citySlug": "goteborg",
		"kommun": "Göteborg",
		"lan": "Västra Götaland",
		"opened": 1994,
		"address": "Generalsgatan, Kviberg, Gamlestaden, Nordost, Göteborg, Göteborgs Stad",
		"postalCode": "415 26"
	},
	{
		"id": "bosniska-islamiska-forsamlingen-surte",
		"name": "Bosniska Islamiska Församlingen Surte",
		"lat": 57.827923,
		"lng": 12.014747,
		"city": "Surte",
		"citySlug": "surte",
		"kommun": "Ale",
		"lan": "Västra Götaland",
		"opened": 2000,
		"address": "Pizzeria Napoli, 76, Göteborgsvägen, Surte",
		"postalCode": "445 57"
	},
	{
		"id": "bosniska-mosken",
		"name": "Bosniska moskén",
		"lat": 58.42249,
		"lng": 13.862545,
		"city": "Skövde",
		"citySlug": "skovde",
		"kommun": "Skövde",
		"lan": "Västra Götaland",
		"opened": 2024,
		"organisation": "Finansieringen av moskén har skett via stiftelser, lokala föreningar och medlemsinsamlingar.",
		"address": "Gamla Karstorpsvägen, Karstorp, Skövde",
		"postalCode": "549 60"
	},
	{
		"id": "chalmers-islamiska-forening",
		"name": "Chalmers Islamiska Förening",
		"lat": 57.688319,
		"lng": 11.97472,
		"city": "Göteborg",
		"citySlug": "goteborg",
		"kommun": "Göteborg",
		"lan": "Västra Götaland",
		"opened": 2000,
		"address": "4, Sven Hultins Gata, Johanneberg, Centrum, Göteborg, Göteborgs Stad",
		"postalCode": "413 21"
	},
	{
		"id": "falkopings-islamiska-forening-fif",
		"name": "FALKÖPINGS ISLAMISKA FÖRENING FIF",
		"lat": 58.170308,
		"lng": 13.560642,
		"city": "Falköping",
		"citySlug": "falkoping",
		"kommun": "Falköping",
		"lan": "Västra Götaland",
		"opened": 2005,
		"address": "55c, Dotorpsgatan, Dotorp, Falköpings distrikt, Falköping",
		"postalCode": "521 44"
	},
	{
		"id": "falkopings-moske",
		"name": "Falköpings Moské",
		"lat": 58.177778,
		"lng": 13.557821,
		"city": "Falköping",
		"citySlug": "falkoping",
		"kommun": "Falköping",
		"lan": "Västra Götaland",
		"opened": 2005,
		"address": "5, Sten Sturegatan, Ranten, Falköpings distrikt, Falköping",
		"postalCode": "521 32"
	},
	{
		"id": "goteborgs-moske",
		"name": "Göteborgs moské",
		"lat": 57.71431,
		"lng": 11.944693,
		"city": "Göteborg",
		"citySlug": "goteborg",
		"kommun": "Göteborg",
		"lan": "Västra Götaland",
		"opened": 2011,
		"address": "Myntgatan, Rambergsstaden, Hisingen, Göteborg, Göteborgs Stad",
		"postalCode": "417 01"
	},
	{
		"id": "hammarkullens-moske",
		"name": "Hammarkullens moské",
		"lat": 57.781457,
		"lng": 12.038572,
		"city": "Göteborg",
		"citySlug": "goteborg",
		"kommun": "Göteborg",
		"lan": "Västra Götaland",
		"address": "Hammarkullegatan, Hammarkullen, Nordost, Göteborg, Göteborgs Stad",
		"postalCode": "424 37"
	},
	{
		"id": "islamisk-centrum-i-goteborg",
		"name": "Islamisk Centrum i Göteborg",
		"lat": 57.727103,
		"lng": 11.950057,
		"city": "Göteborg",
		"citySlug": "goteborg",
		"kommun": "Göteborg",
		"lan": "Västra Götaland",
		"opened": 1977,
		"address": "Turbingatan, Backaplan, Kvillebäcken, Hisingen, Göteborg, Göteborgs Stad",
		"postalCode": "417 24"
	},
	{
		"id": "islamiska-center-i-alingsas",
		"name": "Islamiska Center i Alingsås",
		"lat": 57.930066,
		"lng": 12.532526,
		"city": "Alingsås",
		"citySlug": "alingsas",
		"kommun": "Alingsås",
		"lan": "Västra Götaland",
		"opened": 2008,
		"address": "Stora torget, Sörhaga, Alingsås distrikt, Alingsås",
		"postalCode": "441 30"
	},
	{
		"id": "islamiska-centret-uddevalla",
		"name": "Islamiska Centret Uddevalla",
		"lat": 58.37158,
		"lng": 11.935073,
		"city": "Uddevalla",
		"citySlug": "uddevalla",
		"kommun": "Uddevalla",
		"lan": "Västra Götaland",
		"opened": 2002,
		"organisation": "Medlemmarna",
		"address": "Närhälsan Dalaberg barnavårdscentral, 8, Lövskogsgatan, Dalaberg, Uddevalla, Ramneröd",
		"postalCode": "451 72"
	},
	{
		"id": "islamiska-kultur-foreningen-i-trollhattan",
		"name": "Islamiska Kultur Föreningen i Trollhättan",
		"lat": 58.270106,
		"lng": 12.299935,
		"city": "Trollhättan",
		"citySlug": "trollhattan",
		"kommun": "Trollhättan",
		"lan": "Västra Götaland",
		"opened": 1991,
		"address": "Slåttervägen, Högaffeln, Kronogården, Trollhättan",
		"postalCode": "461 61"
	},
	{
		"id": "islamiska-kulturcentret-kandili",
		"name": "Islamiska Kulturcentret Kandili",
		"lat": 57.715744,
		"lng": 12.961252,
		"city": "Borås",
		"citySlug": "boras",
		"kommun": "Borås",
		"lan": "Västra Götaland",
		"opened": 2023,
		"address": "22, Rosendalsgatan, Bergsäter, Östermalm, Borås",
		"postalCode": "504 52"
	},
	{
		"id": "kultur-fredsforening-fredsmosken",
		"name": "Kultur & Fredsförening (Fredsmoskén)",
		"lat": 58.705129,
		"lng": 13.804296,
		"city": "Mariestad",
		"citySlug": "mariestad",
		"kommun": "Mariestad",
		"lan": "Västra Götaland",
		"address": "Drottning Kristinas väg, Marieholm, Ekudden, Mariestad",
		"postalCode": "542 44"
	},
	{
		"id": "kulturforeningen-amaneti",
		"name": "Kulturföreningen Amaneti",
		"lat": 57.815901,
		"lng": 12.039785,
		"city": "Göteborg",
		"citySlug": "goteborg",
		"kommun": "Göteborg",
		"lan": "Västra Götaland",
		"opened": 2011,
		"address": "Vaniljgatan, Lövgärdet, Nordost, Göteborg, Göteborgs Stad",
		"postalCode": "424 45"
	},
	{
		"id": "kvillebacken-moske",
		"name": "Kvillebäcken Moské",
		"lat": 57.726164,
		"lng": 11.945942,
		"city": "Göteborg",
		"citySlug": "goteborg",
		"kommun": "Göteborg",
		"lan": "Västra Götaland",
		"opened": 2017,
		"address": "Gamla Tuvevägen, Backaplan, Kvillebäcken, Hisingen, Göteborg, Göteborgs Stad",
		"postalCode": "417 24"
	},
	{
		"id": "lidkoping",
		"name": "Lidköping",
		"lat": 58.502035,
		"lng": 13.178615,
		"city": "Lidköping",
		"citySlug": "lidkoping",
		"kommun": "Lidköping",
		"lan": "Västra Götaland",
		"address": "Sockerbruksgatan 11 Lidköping"
	},
	{
		"id": "lidkopings-moske",
		"name": "Lidköpings Moské مسجد ليدشوبينغ",
		"lat": 58.500623,
		"lng": 13.18511,
		"city": "Lidköping",
		"citySlug": "lidkoping",
		"kommun": "Lidköping",
		"lan": "Västra Götaland",
		"opened": 2012,
		"address": "Sockerbruksgatan, Industriområdet Östra hamnen, Vänersvik, Lidköping distrikt, Lidköping",
		"postalCode": "531 33"
	},
	{
		"id": "lysekils-moske",
		"name": "Lysekils moské",
		"lat": 58.278834,
		"lng": 11.443896,
		"city": "Lysekil",
		"citySlug": "lysekil",
		"kommun": "Lysekil",
		"lan": "Västra Götaland",
		"address": "Valbogatan, Slätten, Lysekil",
		"postalCode": "453 35"
	},
	{
		"id": "masjid-lidkoping-moske",
		"name": "Masjid Lidköping moské",
		"lat": 58.505454,
		"lng": 13.156531,
		"city": "Lidköping",
		"citySlug": "lidkoping",
		"kommun": "Lidköping",
		"lan": "Västra Götaland",
		"opened": 2012,
		"address": "Norra Torngatan, Nya staden, Lidköping distrikt, Lidköping",
		"postalCode": "531 30"
	},
	{
		"id": "namnlos-i-osm-amal",
		"name": "Moské i Åmål",
		"lat": 59.052462,
		"lng": 12.703004,
		"city": "Åmål",
		"citySlug": "amal",
		"kommun": "Åmål",
		"lan": "Västra Götaland"
	},
	{
		"id": "skovde",
		"name": "Skövde",
		"lat": 58.425157,
		"lng": 13.877974,
		"city": "Skövde",
		"citySlug": "skovde",
		"kommun": "Skövde",
		"lan": "Västra Götaland",
		"address": "Timmervägen 33 Skövde"
	},
	{
		"id": "somaliska-islamiska-mosken-i-trollhattan",
		"name": "Somaliska Islamiska Moskén i Trollhättan",
		"lat": 58.269207,
		"lng": 12.306333,
		"city": "Trollhättan",
		"citySlug": "trollhattan",
		"kommun": "Trollhättan",
		"lan": "Västra Götaland",
		"opened": 2013,
		"address": "Lantmannavägen, Kronogården, Trollhättan",
		"postalCode": "461 60"
	},
	{
		"id": "svenljunga-moske",
		"name": "Svenljunga moské",
		"lat": 57.495907,
		"lng": 13.111357,
		"city": "Svenljunga",
		"citySlug": "svenljunga",
		"kommun": "Svenljunga",
		"lan": "Västra Götaland",
		"opened": 2013,
		"address": "Torggatan, Moga, Svenljunga",
		"postalCode": "512 53"
	},
	{
		"id": "trollhattan",
		"name": "Trollhättan",
		"lat": 58.271138,
		"lng": 12.310511,
		"city": "Trollhättan",
		"citySlug": "trollhattan",
		"kommun": "Trollhättan",
		"lan": "Västra Götaland",
		"address": "Lantmannavägen 20 Trollhättan"
	},
	{
		"id": "trollhattans-sunnimuslimska-forening",
		"name": "Trollhättans Sunnimuslimska Förening",
		"lat": 58.274757,
		"lng": 12.310764,
		"city": "Trollhättan",
		"citySlug": "trollhattan",
		"kommun": "Trollhättan",
		"lan": "Västra Götaland",
		"opened": 2009,
		"address": "Lantmannavägen, Håjum, Trollhättan",
		"postalCode": "461 60"
	},
	{
		"id": "vargarda-masjid",
		"name": "Vårgårda Masjid",
		"lat": 58.034849,
		"lng": 12.809473,
		"city": "Vårgårda",
		"citySlug": "vargarda",
		"kommun": "Vårgårda",
		"lan": "Västra Götaland",
		"address": "21, Centrumgatan, Klockarebolet, Kullings-Skövde distrikt, Vårgårda",
		"postalCode": "447 30"
	},
	{
		"id": "vagledningens-moske-xhamia-rruga-e-udhezimit",
		"name": "Vägledningens moské, Xhamia Rruga e Udhëzimit",
		"lat": 58.27003,
		"lng": 12.294666,
		"city": "Trollhättan",
		"citySlug": "trollhattan",
		"kommun": "Trollhättan",
		"lan": "Västra Götaland",
		"opened": 2011,
		"address": "Xhamia Rruga e Udhëzimit, 117, Karlstorpsvägen, Karlstorp, Trollhättan",
		"postalCode": "461 52"
	},
	{
		"id": "vanersborgs-moske",
		"name": "Vänersborgs Moské",
		"lat": 58.370494,
		"lng": 12.330399,
		"city": "Vänersborg",
		"citySlug": "vanersborg",
		"kommun": "Vänersborg",
		"lan": "Västra Götaland",
		"opened": 1994,
		"address": "Torpavägen, Mariero, Vänersborg",
		"postalCode": "462 36"
	},
	{
		"id": "bosnisk-islamiska-forsamlingen-orebro",
		"name": "Bosnisk Islamiska Församlingen Örebro",
		"lat": 59.275138,
		"lng": 15.183341,
		"city": "Örebro",
		"citySlug": "orebro",
		"kommun": "Örebro",
		"lan": "Örebro",
		"opened": 1994,
		"address": "Bosnisk Islamiska Moskén, 81, Karlslundsgatan, Västra Mark, Örebro",
		"postalCode": "703 47"
	},
	{
		"id": "karlskoga-moske",
		"name": "Karlskoga Moske",
		"lat": 59.322576,
		"lng": 14.482587,
		"city": "Karlskoga",
		"citySlug": "karlskoga",
		"kommun": "Karlskoga",
		"lan": "Örebro",
		"opened": 2017,
		"address": "Häsängsvägen, Häsängen, Karlskoga",
		"postalCode": "691 21"
	},
	{
		"id": "laxa-moske",
		"name": "Laxå moské",
		"lat": 58.982284,
		"lng": 14.614698,
		"city": "Laxå",
		"citySlug": "laxa",
		"kommun": "Laxå",
		"lan": "Örebro",
		"opened": 2020,
		"address": "Tivedsvägen, Laxå, Ramundeboda distrikt",
		"postalCode": "695 30"
	},
	{
		"id": "mosque-hallefors",
		"name": "Mosque Hällefors",
		"lat": 59.788975,
		"lng": 14.521507,
		"city": "Hällefors",
		"citySlug": "hallefors",
		"kommun": "Hällefors",
		"lan": "Örebro",
		"address": "Lekstigen, Klockarhagen, Hällefors",
		"postalCode": "712 34"
	},
	{
		"id": "orebro-moske",
		"name": "Örebro Moské",
		"lat": 59.297587,
		"lng": 15.196743,
		"city": "Örebro",
		"citySlug": "orebro",
		"kommun": "Örebro",
		"lan": "Örebro",
		"opened": 2008,
		"organisation": "Eid Charity, Qatar",
		"address": "Epiloggatan, Boglundsängen, Örebro",
		"postalCode": "703 70"
	},
	{
		"id": "abisko-moske",
		"name": "Abisko moské",
		"lat": 58.416779,
		"lng": 15.606371,
		"city": "Linköping",
		"citySlug": "linkoping",
		"kommun": "Linköping",
		"lan": "Östergötland",
		"address": "3, Norgegatan, Övre Vasastaden, Vasastaden, Linköpings domkyrkodistrikt, Linköping",
		"postalCode": "582 31"
	},
	{
		"id": "aisha-mosken",
		"name": "Aisha moskén",
		"lat": 58.590477,
		"lng": 16.181261,
		"city": "Norrköping",
		"citySlug": "norrkoping",
		"kommun": "Norrköping",
		"lan": "Östergötland",
		"address": "Mäster Påvels gränd 17"
	},
	{
		"id": "bosniska-islamiska-forsamlingen-linkoping",
		"name": "Bosniska Islamiska Församlingen Linköping",
		"lat": 58.409997,
		"lng": 15.630497,
		"city": "Linköping",
		"citySlug": "linkoping",
		"kommun": "Linköping",
		"lan": "Östergötland",
		"address": "3, Magasinsgränd, Innerstaden, Linköpings Sankt Lars, Linköping",
		"postalCode": "582 26"
	},
	{
		"id": "bosniska-islamiska-forsamlingen-norrkoping",
		"name": "Bosniska Islamiska Församlingen Norrköping",
		"lat": 58.594916,
		"lng": 16.179056,
		"city": "Norrköping",
		"citySlug": "norrkoping",
		"kommun": "Norrköping",
		"lan": "Östergötland",
		"opened": 1995,
		"address": "Kojan Film, 125, Norra promenaden, Nordantill, Norrköping",
		"postalCode": "602 22"
	},
	{
		"id": "islamic-center-motala",
		"name": "Islamic Center Motala",
		"lat": 58.542946,
		"lng": 14.98782,
		"city": "Motala",
		"citySlug": "motala",
		"kommun": "Motala",
		"lan": "Östergötland",
		"opened": 2013,
		"address": "Agneshögsgatan, Marieberg, Väster, Motala",
		"postalCode": "591 72"
	},
	{
		"id": "linkopings-moske",
		"name": "Linköpings moské",
		"lat": 58.40346,
		"lng": 15.633849,
		"city": "Linköping",
		"citySlug": "linkoping",
		"kommun": "Linköping",
		"lan": "Östergötland",
		"opened": 1992,
		"address": "49, Hamngatan, Hejdegården, Linköpings Sankt Lars, Linköping",
		"postalCode": "582 43"
	},
	{
		"id": "moske-i-slaka",
		"name": "Moské i Linköping",
		"lat": 58.390391,
		"lng": 15.550074,
		"city": "Linköping",
		"citySlug": "linkoping",
		"kommun": "Linköping",
		"lan": "Östergötland",
		"address": "Cobolgatan, Lilla Mjärdevi, Rosendal, Slaka, Linköping",
		"postalCode": "583 35"
	},
	{
		"id": "namnlos-i-osm-norrkoping-2",
		"name": "Moské i Norrköping",
		"lat": 58.577965,
		"lng": 16.210843,
		"city": "Norrköping",
		"citySlug": "norrkoping",
		"kommun": "Norrköping",
		"lan": "Östergötland"
	},
	{
		"id": "namnlos-i-osm-norrkoping",
		"name": "Moské vid Skarphagsleden",
		"lat": 58.581836,
		"lng": 16.173168,
		"city": "Norrköping",
		"citySlug": "norrkoping",
		"kommun": "Norrköping",
		"lan": "Östergötland",
		"address": "Skarphagsleden, Norrköping"
	},
	{
		"id": "motala",
		"name": "Motala",
		"lat": 58.546693,
		"lng": 15.072988,
		"city": "Motala",
		"citySlug": "motala",
		"kommun": "Motala",
		"lan": "Östergötland",
		"address": "Strandvägen 171 Motala"
	},
	{
		"id": "svedska-islamska-zajednica-norrkoping",
		"name": "Svedska islamska zajednica Norrköping",
		"lat": 58.597417,
		"lng": 16.182881,
		"city": "Norrköping",
		"citySlug": "norrkoping",
		"kommun": "Norrköping",
		"lan": "Östergötland",
		"opened": 2014,
		"address": "Butängsgatan, Butängen, Norrköping",
		"postalCode": "602 22"
	}
]
